name,latitude,longitude
Sao Paulo,-23.5505,-46.6333
Rio de Janeiro,-22.9068,-43.1729
Brasilia,-15.8267,-47.9218
Salvador,-12.9777,-38.5016
Fortaleza,-3.7172,-38.5434
Belo Horizonte,-19.9167,-43.9345
Manaus,-3.1190,-60.0217
Curitiba,-25.4284,-49.2733
Recife,-8.0476,-34.8770
Porto Alegre,-30.0346,-51.2177