name,latitude,longitude
London,51.5074,-0.1278
Birmingham,52.4862,-1.8904
Manchester,53.4808,-2.2426
Glasgow,55.8642,-4.2518
Leeds,53.8008,-1.5491
Liverpool,53.4084,-2.9916
Newcastle,54.9783,-1.6178
Sheffield,53.3811,-1.4701
Bristol,51.4545,-2.5879
Edinburgh,55.9533,-3.1883
Leicester,52.6369,-1.1398
Coventry,52.4068,-1.5197
Bradford,53.7960,-1.7594
Cardiff,51.4816,-3.1791
Belfast,54.5973,-5.9301
Nottingham,52.9548,-1.1581
Southampton,50.9097,-1.4044
Portsmouth,50.8198,-1.0880